[
  {
    "name": "Book ing bar",
    "details": {
      "lat": 25.0550348,
      "lon": 121.54442,
      "star": 4.7,
      "address": "1樓, No. 183號復興北路松山區"
    }
  },
  {
    "name": "Healer治癒酒吧",
    "details": {
      "lat": 25.0550348,
      "lon": 121.54442,
      "star": 4.7,
      "address": "1樓, No. 183號復興北路松山區"
    }
  },
  {
    "name": "Beau",
    "details": {
      "lat": 25.0550348,
      "lon": 121.54442,
      "star": 4.7,
      "address": "1樓, No. 183號復興北路松山區"
    }
  },
  {
    "name": "後院 L'arrière-cour",
    "details": {
      "lat": 25.0550348,
      "lon": 121.54442,
      "star": 4.7,
      "address": "1樓, No. 183號復興北路松山區"
    }
  },
  {
    "name": "Ounce",
    "details": {
      "lat": 25.0550348,
      "lon": 121.54442,
      "star": 4.7,
      "address": "1樓, No. 183號復興北路松山區"
    }
  },
  {
    "name": "The Fridge bar",
    "details": {
      "lat": 25.0550348,
      "lon": 121.54442,
      "star": 4.7,
      "address": "1樓, No. 183號復興北路松山區"
    }
  },
  {
    "name": "Shaka Lounge Bar",
    "details": {
      "lat": 25.0550348,
      "lon": 121.54442,
      "star": 4.7,
      "address": "1樓, No. 183號復興北路松山區"
    }
  },
  {
    "name": "Bar Genao",
    "details": {
      "lat": 25.0550348,
      "lon": 121.54442,
      "star": 4.7,
      "address": "1樓, No. 183號復興北路松山區"
    }
  },
  {
    "name": "Needle Bar",
    "details": {
      "lat": 25.0550348,
      "lon": 121.54442,
      "star": 4.7,
      "address": "1樓, No. 183號復興北路松山區"
    }
  },
  {
    "name": "綺夢Lounge Bar/永春酒吧/信義區酒吧/東區酒吧/調酒推薦/Bistro清吧/捷運站bar",
    "details": {
      "lat": 25.0550348,
      "lon": 121.54442,
      "star": 4.7,
      "address": "1樓, No. 183號復興北路松山區"
    }
  },
  {
    "name": "WAT",
    "details": {
      "lat": 25.0550348,
      "lon": 121.54442,
      "star": 4.7,
      "address": "1樓, No. 183號復興北路松山區"
    }
  },
  {
    "name": "1+1小酒館(1+198)",
    "details": {
      "lat": 25.0550348,
      "lon": 121.54442,
      "star": 4.7,
      "address": "1樓, No. 183號復興北路松山區"
    }
  },
  {
    "name": "L bar",
    "details": {
      "lat": 25.0550348,
      "lon": 121.54442,
      "star": 4.7,
      "address": "1樓, No. 183號復興北路松山區"
    }
  },
  {
    "name": "Relax Jazz Pub",
    "details": {
      "lat": 25.0550348,
      "lon": 121.54442,
      "star": 4.7,
      "address": "1樓, No. 183號復興北路松山區"
    }
  },
  {
    "name": "Odin信義放感情-餐酒館推薦 平價調酒酒吧 bar bistro 人氣特色餐酒美食推薦 網美酒吧",
    "details": {
      "lat": 25.0550348,
      "lon": 121.54442,
      "star": 4.7,
      "address": "1樓, No. 183號復興北路松山區"
    }
  },
  {
    "name": "無向 Bar Without",
    "details": {
      "lat": 25.0550348,
      "lon": 121.54442,
      "star": 4.7,
      "address": "1樓, No. 183號復興北路松山區"
    }
  },
  {
    "name": "JokeR Bistro & Bar",
    "details": {
      "lat": 25.0550348,
      "lon": 121.54442,
      "star": 4.7,
      "address": "1樓, No. 183號復興北路松山區"
    }
  },
  {
    "name": "Mr. BEAN Taipei",
    "details": {
      "lat": 25.0550348,
      "lon": 121.54442,
      "star": 4.7,
      "address": "1樓, No. 183號復興北路松山區"
    }
  },
  {
    "name": "Marsalis Home Taipei",
    "details": {
      "lat": 25.0550348,
      "lon": 121.54442,
      "star": 4.7,
      "address": "1樓, No. 183號復興北路松山區"
    }
  },
  {
    "name": "jiangwayne.com Sake Bar 清酒吧",
    "details": {
      "lat": 25.0550348,
      "lon": 121.54442,
      "star": 4.7,
      "address": "1樓, No. 183號復興北路松山區"
    }
  },
  {
    "name": "Alchemy Bar Taipei",
    "details": {
      "lat": 25.0550348,
      "lon": 121.54442,
      "star": 4.7,
      "address": "1樓, No. 183號復興北路松山區"
    }
  },
  {
    "name": "R&D",
    "details": {
      "lat": 25.0550348,
      "lon": 121.54442,
      "star": 4.7,
      "address": "1樓, No. 183號復興北路松山區"
    }
  },
  {
    "name": "HOKY's Spirit Bar",
    "details": {
      "lat": 25.0550348,
      "lon": 121.54442,
      "star": 4.7,
      "address": "1樓, No. 183號復興北路松山區"
    }
  },
  {
    "name": "Tipsy Dragon Bar",
    "details": {
      "lat": 25.0550348,
      "lon": 121.54442,
      "star": 4.7,
      "address": "1樓, No. 183號復興北路松山區"
    }
  },
  {
    "name": "OriginBAR 源",
    "details": {
      "lat": 25.0550348,
      "lon": 121.54442,
      "star": 4.7,
      "address": "1樓, No. 183號復興北路松山區"
    }
  },
  {
    "name": "MQ [ Marquee Taipei ]",
    "details": {
      "lat": 25.0550348,
      "lon": 121.54442,
      "star": 4.7,
      "address": "1樓, No. 183號復興北路松山區"
    }
  },
  {
    "name": "Digout Bar & Cafe",
    "details": {
      "lat": 25.0550348,
      "lon": 121.54442,
      "star": 4.7,
      "address": "1樓, No. 183號復興北路松山區"
    }
  },
  {
    "name": "HOMIES SOFT BAR 飛鏢運動酒吧",
    "details": {
      "lat": 25.0550348,
      "lon": 121.54442,
      "star": 4.7,
      "address": "1樓, No. 183號復興北路松山區"
    }
  },
  {
    "name": "蘇洛酒吧",
    "details": {
      "lat": 25.0550348,
      "lon": 121.54442,
      "star": 4.7,
      "address": "1樓, No. 183號復興北路松山區"
    }
  },
  {
    "name": "Bar Layers",
    "details": {
      "lat": 25.0550348,
      "lon": 121.54442,
      "star": 4.7,
      "address": "1樓, No. 183號復興北路松山區"
    }
  },
  {
    "name": "The Speakeasy Bar",
    "details": {
      "lat": 25.0550348,
      "lon": 121.54442,
      "star": 4.7,
      "address": "1樓, No. 183號復興北路松山區"
    }
  },
  {
    "name": "A Light",
    "details": {
      "lat": 25.0550348,
      "lon": 121.54442,
      "star": 4.7,
      "address": "1樓, No. 183號復興北路松山區"
    }
  },
  {
    "name": "侶人 x【Bar】亂調",
    "details": {
      "lat": 25.0550348,
      "lon": 121.54442,
      "star": 4.7,
      "address": "1樓, No. 183號復興北路松山區"
    }
  },
  {
    "name": "Draft Land",
    "details": {
      "lat": 25.0550348,
      "lon": 121.54442,
      "star": 4.7,
      "address": "1樓, No. 183號復興北路松山區"
    }
  },
  {
    "name": "離城放感情-餐酒館推薦 平價調酒酒吧 bar bistro 人氣特色餐酒美食推薦 網美酒吧",
    "details": {
      "lat": 25.0550348,
      "lon": 121.54442,
      "star": 4.7,
      "address": "1樓, No. 183號復興北路松山區"
    }
  },
  {
    "name": "摩得餐坊",
    "details": {
      "lat": 25.0550348,
      "lon": 121.54442,
      "star": 4.7,
      "address": "1樓, No. 183號復興北路松山區"
    }
  },
  {
    "name": "She_Design tapas soju bar",
    "details": {
      "lat": 25.0550348,
      "lon": 121.54442,
      "star": 4.7,
      "address": "1樓, No. 183號復興北路松山區"
    }
  },
  {
    "name": "安慰劑 Placebo Taipei",
    "details": {
      "lat": 25.0550348,
      "lon": 121.54442,
      "star": 4.7,
      "address": "1樓, No. 183號復興北路松山區"
    }
  },
  {
    "name": "WOOBAR",
    "details": {
      "lat": 25.0550348,
      "lon": 121.54442,
      "star": 4.7,
      "address": "1樓, No. 183號復興北路松山區"
    }
  },
  {
    "name": "半路酒吧",
    "details": {
      "lat": 25.0550348,
      "lon": 121.54442,
      "star": 4.7,
      "address": "1樓, No. 183號復興北路松山區"
    }
  },
  {
    "name": "萊憶酒吧",
    "details": {
      "lat": 25.0550348,
      "lon": 121.54442,
      "star": 4.7,
      "address": "1樓, No. 183號復興北路松山區"
    }
  },
  {
    "name": "Motown Taipei",
    "details": {
      "lat": 25.0550348,
      "lon": 121.54442,
      "star": 4.7,
      "address": "1樓, No. 183號復興北路松山區"
    }
  },
  {
    "name": "Le Kief 菱玖洋服",
    "details": {
      "lat": 25.0550348,
      "lon": 121.54442,
      "star": 4.7,
      "address": "1樓, No. 183號復興北路松山區"
    }
  },
  {
    "name": "Kashoku",
    "details": {
      "lat": 25.0550348,
      "lon": 121.54442,
      "star": 4.7,
      "address": "1樓, No. 183號復興北路松山區"
    }
  },
  {
    "name": "玖杯 Κρασί 京華店",
    "details": {
      "lat": 25.0550348,
      "lon": 121.54442,
      "star": 4.7,
      "address": "1樓, No. 183號復興北路松山區"
    }
  },
  {
    "name": "ChangeX Beer Taipei",
    "details": {
      "lat": 25.0550348,
      "lon": 121.54442,
      "star": 4.7,
      "address": "1樓, No. 183號復興北路松山區"
    }
  },
  {
    "name": "Midway",
    "details": {
      "lat": 25.0550348,
      "lon": 121.54442,
      "star": 4.7,
      "address": "1樓, No. 183號復興北路松山區"
    }
  },
  {
    "name": "Ole Rum Bar & Tapas",
    "details": {
      "lat": 25.0550348,
      "lon": 121.54442,
      "star": 4.7,
      "address": "1樓, No. 183號復興北路松山區"
    }
  },
  {
    "name": "You & Me 牛肉麵Bar",
    "details": {
      "lat": 25.0550348,
      "lon": 121.54442,
      "star": 4.7,
      "address": "1樓, No. 183號復興北路松山區"
    }
  },
  {
    "name": "MANIA 躁鎮",
    "details": {
      "lat": 25.0550348,
      "lon": 121.54442,
      "star": 4.7,
      "address": "1樓, No. 183號復興北路松山區"
    }
  },
  {
    "name": "小後苑Backyard Jr.",
    "details": {
      "lat": 25.0550348,
      "lon": 121.54442,
      "star": 4.7,
      "address": "1樓, No. 183號復興北路松山區"
    }
  },
  {
    "name": "Charlie's Sports Bar Taipei",
    "details": {
      "lat": 25.0550348,
      "lon": 121.54442,
      "star": 4.7,
      "address": "1樓, No. 183號復興北路松山區"
    }
  },
  {
    "name": "台北酒驛 Turnout Taipei",
    "details": {
      "lat": 25.0550348,
      "lon": 121.54442,
      "star": 4.7,
      "address": "1樓, No. 183號復興北路松山區"
    }
  },
  {
    "name": "KOR Taipei",
    "details": {
      "lat": 25.0550348,
      "lon": 121.54442,
      "star": 4.7,
      "address": "1樓, No. 183號復興北路松山區"
    }
  },
  {
    "name": "楓木餐酒館 Maple Bar",
    "details": {
      "lat": 25.0550348,
      "lon": 121.54442,
      "star": 4.7,
      "address": "1樓, No. 183號復興北路松山區"
    }
  },
  {
    "name": "85 Lounge",
    "details": {
      "lat": 25.0550348,
      "lon": 121.54442,
      "star": 4.7,
      "address": "1樓, No. 183號復興北路松山區"
    }
  },
  {
    "name": "B612 Restaurant & Bar - B612餐酒館",
    "details": {
      "lat": 25.0550348,
      "lon": 121.54442,
      "star": 4.7,
      "address": "1樓, No. 183號復興北路松山區"
    }
  },
  {
    "name": "Old Brick 運動酒吧",
    "details": {
      "lat": 25.0550348,
      "lon": 121.54442,
      "star": 4.7,
      "address": "1樓, No. 183號復興北路松山區"
    }
  },
  {
    "name": "Bom Bar",
    "details": {
      "lat": 25.0550348,
      "lon": 121.54442,
      "star": 4.7,
      "address": "1樓, No. 183號復興北路松山區"
    }
  },
  {
    "name": "Sappho Live Jazz",
    "details": {
      "lat": 25.0550348,
      "lon": 121.54442,
      "star": 4.7,
      "address": "1樓, No. 183號復興北路松山區"
    }
  },
  {
    "name": "Sober Mixology",
    "details": {
      "lat": 25.0550348,
      "lon": 121.54442,
      "star": 4.7,
      "address": "1樓, No. 183號復興北路松山區"
    }
  },
  {
    "name": "Bar Mood Taipei 吧沐-Cocktail Bar 場地租借Bistro 晚餐宵夜 Grill 聚會包場 Bar Food 推薦 Whisky",
    "details": {
      "lat": 25.0550348,
      "lon": 121.54442,
      "star": 4.7,
      "address": "1樓, No. 183號復興北路松山區"
    }
  },
  {
    "name": "BAR AFTER NINE 九後餐酒館",
    "details": {
      "lat": 25.0550348,
      "lon": 121.54442,
      "star": 4.7,
      "address": "1樓, No. 183號復興北路松山區"
    }
  },
  {
    "name": "Bar春花The Primrose-中正區酒吧bar bistro 水果調酒 經典調酒 餐酒推薦 小酌聚會推薦",
    "details": {
      "lat": 25.0550348,
      "lon": 121.54442,
      "star": 4.7,
      "address": "1樓, No. 183號復興北路松山區"
    }
  },
  {
    "name": "Bar Weekend",
    "details": {
      "lat": 25.0550348,
      "lon": 121.54442,
      "star": 4.7,
      "address": "1樓, No. 183號復興北路松山區"
    }
  },
  {
    "name": "M.O. Bar",
    "details": {
      "lat": 25.0550348,
      "lon": 121.54442,
      "star": 4.7,
      "address": "1樓, No. 183號復興北路松山區"
    }
  },
  {
    "name": "EAST END",
    "details": {
      "lat": 25.0550348,
      "lon": 121.54442,
      "star": 4.7,
      "address": "1樓, No. 183號復興北路松山區"
    }
  },
  {
    "name": "MUD Bar",
    "details": {
      "lat": 25.0550348,
      "lon": 121.54442,
      "star": 4.7,
      "address": "1樓, No. 183號復興北路松山區"
    }
  },
  {
    "name": "Da Bar",
    "details": {
      "lat": 25.0550348,
      "lon": 121.54442,
      "star": 4.7,
      "address": "1樓, No. 183號復興北路松山區"
    }
  },
  {
    "name": "TEA BAR 米蓮娜茶餐酒吧",
    "details": {
      "lat": 25.0550348,
      "lon": 121.54442,
      "star": 4.7,
      "address": "1樓, No. 183號復興北路松山區"
    }
  },
  {
    "name": "噶瑪蘭威士忌酒吧",
    "details": {
      "lat": 25.0550348,
      "lon": 121.54442,
      "star": 4.7,
      "address": "1樓, No. 183號復興北路松山區"
    }
  },
  {
    "name": "The Pub",
    "details": {
      "lat": 25.0550348,
      "lon": 121.54442,
      "star": 4.7,
      "address": "1樓, No. 183號復興北路松山區"
    }
  },
  {
    "name": "B Line by A Train",
    "details": {
      "lat": 25.0550348,
      "lon": 121.54442,
      "star": 4.7,
      "address": "1樓, No. 183號復興北路松山區"
    }
  },
  {
    "name": "Fourplay Cuisine",
    "details": {
      "lat": 25.0550348,
      "lon": 121.54442,
      "star": 4.7,
      "address": "1樓, No. 183號復興北路松山區"
    }
  },
  {
    "name": "333 Restaurant & Bar",
    "details": {
      "lat": 25.0550348,
      "lon": 121.54442,
      "star": 4.7,
      "address": "1樓, No. 183號復興北路松山區"
    }
  },
  {
    "name": "OAK",
    "details": {
      "lat": 25.0550348,
      "lon": 121.54442,
      "star": 4.7,
      "address": "1樓, No. 183號復興北路松山區"
    }
  },
  {
    "name": "Via24 Bar",
    "details": {
      "lat": 25.0550348,
      "lon": 121.54442,
      "star": 4.7,
      "address": "1樓, No. 183號復興北路松山區"
    }
  },
  {
    "name": "Bar Turning Point",
    "details": {
      "lat": 25.0550348,
      "lon": 121.54442,
      "star": 4.7,
      "address": "1樓, No. 183號復興北路松山區"
    }
  },
  {
    "name": "Continue? Gaming Bar電玩餐酒吧",
    "details": {
      "lat": 25.0550348,
      "lon": 121.54442,
      "star": 4.7,
      "address": "1樓, No. 183號復興北路松山區"
    }
  },
  {
    "name": "No.19 Bar",
    "details": {
      "lat": 25.0550348,
      "lon": 121.54442,
      "star": 4.7,
      "address": "1樓, No. 183號復興北路松山區"
    }
  },
  {
    "name": "Cyntonia's Cafe & Bar",
    "details": {
      "lat": 25.0550348,
      "lon": 121.54442,
      "star": 4.7,
      "address": "1樓, No. 183號復興北路松山區"
    }
  },
  {
    "name": "SoShow Bar & Restaurant/台灣咖啡館/local cocktail/中山區酒吧",
    "details": {
      "lat": 25.0550348,
      "lon": 121.54442,
      "star": 4.7,
      "address": "1樓, No. 183號復興北路松山區"
    }
  },
  {
    "name": "Nite Nite 酒鈅酒 Bistro Bar-大安酒吧推薦 科技大樓酒吧 推薦餐酒館 場地租借 品酒酒吧 聚會包廂",
    "details": {
      "lat": 25.0550348,
      "lon": 121.54442,
      "star": 4.7,
      "address": "1樓, No. 183號復興北路松山區"
    }
  },
  {
    "name": "LoFi Bistro",
    "details": {
      "lat": 25.0550348,
      "lon": 121.54442,
      "star": 4.7,
      "address": "1樓, No. 183號復興北路松山區"
    }
  },
  {
    "name": "異塵CELLAR LOUNGE BAR",
    "details": {
      "lat": 25.0550348,
      "lon": 121.54442,
      "star": 4.7,
      "address": "1樓, No. 183號復興北路松山區"
    }
  },
  {
    "name": "Unknown Lounge bar",
    "details": {
      "lat": 25.0550348,
      "lon": 121.54442,
      "star": 4.7,
      "address": "1樓, No. 183號復興北路松山區"
    }
  },
  {
    "name": "Learn Bar 學吧精釀",
    "details": {
      "lat": 25.0550348,
      "lon": 121.54442,
      "star": 4.7,
      "address": "1樓, No. 183號復興北路松山區"
    }
  },
  {
    "name": "8528 Music Bar",
    "details": {
      "lat": 25.0550348,
      "lon": 121.54442,
      "star": 4.7,
      "address": "1樓, No. 183號復興北路松山區"
    }
  },
  {
    "name": "AHA Saloon",
    "details": {
      "lat": 25.0550348,
      "lon": 121.54442,
      "star": 4.7,
      "address": "1樓, No. 183號復興北路松山區"
    }
  },
  {
    "name": "RK Darts Bar",
    "details": {
      "lat": 25.0550348,
      "lon": 121.54442,
      "star": 4.7,
      "address": "1樓, No. 183號復興北路松山區"
    }
  },
  {
    "name": "洞香春-酒吧推薦 店中店酒吧 speakeasy 無酒單調酒 深夜食堂 酒吧小酌聚會 特色酒吧",
    "details": {
      "lat": 25.0550348,
      "lon": 121.54442,
      "star": 4.7,
      "address": "1樓, No. 183號復興北路松山區"
    }
  },
  {
    "name": "C Park by A Train",
    "details": {
      "lat": 25.0550348,
      "lon": 121.54442,
      "star": 4.7,
      "address": "1樓, No. 183號復興北路松山區"
    }
  },
  {
    "name": "D Town Cafe",
    "details": {
      "lat": 25.0550348,
      "lon": 121.54442,
      "star": 4.7,
      "address": "1樓, No. 183號復興北路松山區"
    }
  },
  {
    "name": "DUO Taipei",
    "details": {
      "lat": 25.0550348,
      "lon": 121.54442,
      "star": 4.7,
      "address": "1樓, No. 183號復興北路松山區"
    }
  },
  {
    "name": "天蠍座PUB",
    "details": {
      "lat": 25.0550348,
      "lon": 121.54442,
      "star": 4.7,
      "address": "1樓, No. 183號復興北路松山區"
    }
  },
  {
    "name": "Ｗonder Bar & Lounge",
    "details": {
      "lat": 25.0550348,
      "lon": 121.54442,
      "star": 4.7,
      "address": "1樓, No. 183號復興北路松山區"
    }
  }
]